Time (s),AGL (meters),Changed Status,Command State,Compass Heading (degrees),Correction Pitch (degrees),Correction Roll (degrees),Correction Yaw (degrees),Current Altitude (meters),Current Command,Current Gain Schedule,Current Pitch (degrees),Current Roll (degrees),Current Speed (meters / s),Current Yaw (degrees)
0,0.53,On the ground. CIC mode. Battery OK. Transmitter on,wait (1),256.6,0,0,0,1.52,takeoff,0,0.45,0.17,0,0
0.031,0.53,On the ground. CIC mode. Battery OK. Transmitter on,wait (1),256.5,0.39,0.22,0,1.49,takeoff,0,0.45,0.17,0,0
0.064,0.53,On the ground. CIC mode. Battery OK. Transmitter on,wait (1),256.7,0.39,0.22,0,1.49,takeoff,0,0.45,0.17,0,-103.68
0.099,0.53,On the ground. CIC mode. Battery OK. Transmitter on,wait (1),256.7,0.39,0.22,0,1.52,takeoff,0,0.45,0.17,0,-103.68
0.133,0.53,On the ground. CIC mode. Battery OK. Transmitter on,wait (1),256.8,0.34,0.11,0,1.49,takeoff,0,0.45,0.17,0,-103.68
0.17,0.53,On the ground. CIC mode. Battery OK. Transmitter on,wait (1),256.8,0.34,0.11,0,1.49,takeoff,0,0.45,0.17,0,-103.68
0.201,0.53,On the ground. CIC mode. Battery OK. Transmitter on,wait (1),256.8,0.34,0.11,0,1.49,takeoff,0,0.45,0.17,1.22,-103.68
0.24,0.53,On the ground. CIC mode. Battery OK. Transmitter on,wait (1),256.8,0.45,0.17,0,1.49,takeoff,0,0.45,0.17,1.22,-103.68
0.271,0.53,On the ground. CIC mode. Battery OK. Transmitter on,wait (1),256.7,0.45,0.17,0,1.49,takeoff,0,0.45,0.17,1.22,-103.68
0.304,0.53,On the ground. CIC mode. Battery OK. Transmitter on,wait (1),256.7,0.45,0.17,0,1.49,takeoff,0,0.45,0.17,1.22,-103.68
0.34,0.53,On the ground. CIC mode. Battery OK. Transmitter on,wait (1),256.7,0.39,0.11,0,1.49,takeoff,0,0.45,0.17,1.22,-103.68
0.371,0.53,On the ground. CIC mode. Battery OK. Transmitter on,wait (1),256.8,0.39,0.11,0,1.49,takeoff,0,0.45,0.17,1.22,-103.68
0.41,0.53,On the ground. CIC mode. Battery OK. Transmitter on,wait (1),256.7,0.39,0.11,0,1.49,takeoff,0,0.45,0.17,1.22,-103.68
0.44,0.53,On the ground. CIC mode. Battery OK. Transmitter on,wait (1),256.9,0.45,0.17,0,1.49,takeoff,0,0.45,0.17,1.22,-103.68
0.475,0.53,On the ground. CIC mode. Battery OK. Transmitter on,wait (1),256.7,0.45,0.17,0,1.49,takeoff,0,0.45,0.17,1.22,-103.68
0.508,0.53,On the ground. CIC mode. Battery OK. Transmitter on,wait (1),256.7,0.45,0.17,0,1.49,takeoff,0,0.45,0.17,1.22,-103.68
0.545,0.53,On the ground. CIC mode. Battery OK. Transmitter on,wait (1),256.8,0.56,0.28,0,1.52,takeoff,0,0.45,0.17,1.22,-103.68
0.577,0.53,On the ground. CIC mode. Battery OK. Transmitter on,wait (1),256.5,0.56,0.28,0,1.49,takeoff,0,0.45,0.17,0,-103.68
0.613,0.53,On the ground. CIC mode. Battery OK. Transmitter on,wait (1),256.7,0.56,0.28,0,1.49,takeoff,0,0.45,0.17,0,-103.68
0.643,0.53,On the ground. CIC mode. Battery OK. Transmitter on,wait (1),256.5,0.5,0.11,0,1.52,takeoff,0,0.45,0.11,0,-103.68
0.678,0.53,On the ground. CIC mode. Battery OK. Transmitter on,wait (1),256.6,0.5,0.11,0,1.52,takeoff,0,0.45,0.11,0,-103.68
0.712,0.53,On the ground. CIC mode. Battery OK. Transmitter on,wait (1),256.6,0.5,0.11,0,1.52,takeoff,0,0.45,0.11,0,-103.68
0.746,0.53,On the ground. CIC mode. Battery OK. Transmitter on,wait (1),256.7,0.62,0.17,0,1.52,takeoff,0,0.45,0.11,0,-103.68
0.78,0.53,On the ground. CIC mode. Battery OK. Transmitter on,wait (1),256.5,0.62,0.17,0,1.52,takeoff,0,0.45,0.11,0,-103.68
0.816,0.53,On the ground. CIC mode. Battery OK. Transmitter on,wait (1),256.6,0.62,0.17,0,1.52,takeoff,0,0.45,0.11,0,-103.68
0.85,0.53,On the ground. CIC mode. Battery OK. Transmitter on,wait (1),256.8,0.45,0.17,0,1.56,takeoff,0,0.45,0.11,0,-103.68
0.884,0.53,On the ground. CIC mode. Battery OK. Transmitter on,wait (1),256.6,0.45,0.17,0,1.56,takeoff,0,0.45,0.11,0,-103.68
0.917,0.53,On the ground. CIC mode. Battery OK. Transmitter on,wait (1),256.5,0.45,0.17,0,1.56,takeoff,0,0.45,0.11,0,-103.68
0.949,0.53,On the ground. CIC mode. Battery OK. Transmitter on,wait (1),256.5,0.39,0.17,0,1.56,takeoff,0,0.45,0.11,0,-103.68
0.984,0.53,On the ground. CIC mode. Battery OK. Transmitter on,wait (1),256.7,0.39,0.17,0,1.6,takeoff,0,0.45,0.11,0.61,-103.68
1.02,0.53,On the ground. CIC mode. Battery OK. Transmitter on,wait (1),256.8,0.39,0.17,0,1.6,takeoff,0,0.45,0.11,0.61,-103.68
1.053,0.53,On the ground. CIC mode. Battery OK. Transmitter on,wait (1),256.8,0.45,0.17,0,1.6,takeoff,0,0.45,0.11,0.61,-103.68
1.086,0.53,On the ground. CIC mode. Battery OK. Transmitter on,wait (1),256.7,0.45,0.17,0,1.6,takeoff,0,0.45,0.11,0.61,-103.68
1.12,0.53,On the ground. CIC mode. Battery OK. Transmitter on,wait (1),256.6,0.45,0.17,0,1.64,takeoff,0,0.45,0.11,0.61,-103.68
1.154,0.53,On the ground. CIC mode. Battery OK. Transmitter on,wait (1),256.6,0.5,0.11,0,1.64,takeoff,0,0.45,0.11,0.61,-103.68
1.186,0,On the ground. CIC mode. Battery OK. Transmitter on,wait (1),256.6,0.5,0.11,0,1.64,takeoff,0,0.45,0.11,0.61,-103.62
1.223,0,On the ground. CIC mode. Battery OK. Transmitter on,wait (1),256.8,0.5,0.11,0,1.64,takeoff,0,0.45,0.11,1.52,-103.62
1.257,0,On the ground. CIC mode. Battery OK. Transmitter on,wait (1),256.7,0.45,0.22,0,1.64,takeoff,0,0.45,0.17,1.52,-103.62
1.29,0,On the ground. CIC mode. Battery OK. Transmitter on,wait (1),256.7,0.45,0.22,0,1.68,takeoff,0,0.45,0.11,1.52,-103.62
1.323,0,On the ground. CIC mode. Battery OK. Transmitter on,wait (1),256.6,0.45,0.22,0,1.64,takeoff,0,0.45,0.17,1.52,-103.62
1.36,0,On the ground. CIC mode. Battery OK. Transmitter on,wait (1),256.6,0.45,0.06,0,1.68,takeoff,0,0.45,0.17,1.52,-103.62
1.389,0.53,On the ground. CIC mode. Battery OK. Transmitter on,wait (1),256.6,0.45,0.06,0,1.68,takeoff,0,0.45,0.17,0.61,-103.62
1.429,0.53,On the ground. CIC mode. Battery OK. Transmitter on,wait (1),256.7,0.45,0.06,0,1.68,takeoff,0,0.45,0.11,0.61,-103.62
1.462,0.53,On the ground. CIC mode. Battery OK. Transmitter on,wait (1),256.8,0.5,0.11,0,1.68,takeoff,0,0.45,0.11,0.61,-103.62
1.493,0.53,On the ground. CIC mode. Battery OK. Transmitter on,wait (1),256.8,0.5,0.11,0,1.68,takeoff,0,0.45,0.17,0.61,-103.62
1.529,0.53,On the ground. CIC mode. Battery OK. Transmitter on,wait (1),256.7,0.5,0.11,0,1.68,takeoff,0,0.45,0.17,0.61,-103.62
1.56,0.53,On the ground. CIC mode. Battery OK. Transmitter on,wait (1),256.6,0.45,0.11,0,1.68,takeoff,0,0.45,0.17,0.61,-103.62
1.596,0.53,On the ground. CIC mode. Battery OK. Transmitter on,wait (1),256.7,0.45,0.11,0,1.68,takeoff,0,0.45,0.17,0,-103.62
1.631,0.53,On the ground. CIC mode. Battery OK. Transmitter on,wait (1),256.7,0.45,0.11,0,1.71,takeoff,0,0.45,0.17,0,-103.62
1.664,0.53,On the ground. CIC mode. Battery OK. Transmitter on,wait (1),257,0.39,0.28,0,1.71,takeoff,0,0.45,0.17,0,-103.62
1.696,0.53,On the ground. CIC mode. Battery OK. Transmitter on,wait (1),256.9,0.39,0.28,0,1.71,takeoff,0,0.45,0.17,0,-103.62
1.733,0.53,On the ground. CIC mode. Battery OK. Transmitter on,wait (1),256.7,0.39,0.28,0,1.71,takeoff,0,0.45,0.17,0,-103.62
1.764,0.53,On the ground. CIC mode. Battery OK. Transmitter on,wait (1),256.7,0.5,0.17,0,1.71,takeoff,0,0.45,0.17,0,-103.62
1.801,0.53,On the ground. CIC mode. Battery OK. Transmitter on,wait (1),256.8,0.5,0.17,0,1.75,takeoff,0,0.45,0.17,0,-103.62
1.831,0.53,On the ground. CIC mode. Battery OK. Transmitter on,wait (1),256.8,0.5,0.17,0,1.75,takeoff,0,0.45,0.17,1.52,-103.62
1.873,0.53,On the ground. CIC mode. Battery OK. Transmitter on,wait (1),256.8,0.5,0.39,0,1.75,takeoff,0,0.45,0.17,1.52,-103.62
1.903,0.53,On the ground. CIC mode. Battery OK. Transmitter on,wait (1),256.6,0.5,0.39,0,1.75,takeoff,0,0.45,0.17,1.52,-103.62
1.934,0.53,On the ground. CIC mode. Battery OK. Transmitter on,wait (1),256.4,0.5,0.39,0,1.79,takeoff,0,0.45,0.17,1.52,-103.62
1.969,0.53,On the ground. CIC mode. Battery OK. Transmitter on,wait (1),256.4,0.5,0.45,0,1.79,takeoff,0,0.45,0.17,1.52,-103.62
2.002,0.53,On the ground. CIC mode. Battery OK. Transmitter on,wait (1),256.8,0.5,0.45,0,1.79,takeoff,0,0.45,0.17,0,-103.57
2.04,0.53,On the ground. CIC mode. Battery OK. Transmitter on,wait (1),256.7,0.5,0.45,0,1.83,takeoff,0,0.45,0.17,0,-103.57
2.07,0.53,On the ground. CIC mode. Battery OK. Transmitter on,wait (1),256.7,0.45,0.22,0,1.83,takeoff,0,0.45,0.17,0,-103.57
2.107,0.53,On the ground. CIC mode. Battery OK. Transmitter on,wait (1),256.8,0.45,0.22,0,1.83,takeoff,0,0.45,0.17,0,-103.57
2.141,0.53,On the ground. CIC mode. Battery OK. Transmitter on,wait (1),256.7,0.45,0.22,0,1.83,takeoff,0,0.45,0.17,0,-103.57
2.174,0.53,On the ground. CIC mode. Battery OK. Transmitter on,wait (1),256.4,0.34,0.06,0,1.83,takeoff,0,0.45,0.17,0,-103.57
2.207,0.53,On the ground. CIC mode. Battery OK. Transmitter on,wait (1),256.7,0.34,0.06,0,1.87,takeoff,0,0.45,0.17,0,-103.57
2.242,0.53,On the ground. CIC mode. Battery OK. Transmitter on,wait (1),256.7,0.34,0.06,0,1.87,takeoff,0,0.45,0.22,1.22,-103.57
2.276,0.53,On the ground. CIC mode. Battery OK. Transmitter on,wait (1),256.8,0.45,0.22,0,1.87,takeoff,0,0.45,0.17,1.22,-103.57
2.311,0.53,On the ground. CIC mode. Battery OK. Transmitter on,wait (1),256.8,0.45,0.22,0,1.87,takeoff,0,0.45,0.17,1.22,-103.57
2.344,0.53,On the ground. CIC mode. Battery OK. Transmitter on,wait (1),256.7,0.45,0.22,0,1.87,takeoff,0,0.45,0.17,1.22,-103.57
2.378,0.53,On the ground. CIC mode. Battery OK. Transmitter on,wait (1),256.6,0.5,0.11,0,1.87,takeoff,0,0.45,0.17,1.22,-103.57
2.411,0.53,On the ground. CIC mode. Battery OK. Transmitter on,wait (1),256.8,0.5,0.11,0,1.87,takeoff,0,0.45,0.17,1.22,-103.57
2.449,0.53,On the ground. CIC mode. Battery OK. Transmitter on,wait (1),256.8,0.5,0.11,0,1.91,takeoff,0,0.45,0.17,0,-103.57
2.482,0.53,On the ground. CIC mode. Battery OK. Transmitter on,wait (1),256.6,0.45,0.11,0,1.87,takeoff,0,0.45,0.17,0,-103.57
2.514,0.53,On the ground. CIC mode. Battery OK. Transmitter on,wait (1),256.8,0.45,0.11,0,1.87,takeoff,0,0.45,0.17,0,-103.57
2.548,0.53,On the ground. CIC mode. Battery OK. Transmitter on,wait (1),256.8,0.45,0.11,0,1.91,takeoff,0,0.45,0.17,0,-103.57
2.58,0.53,On the ground. CIC mode. Battery OK. Transmitter on,wait (1),256.7,0.45,0.06,0,1.87,takeoff,0,0.45,0.17,0,-103.57
2.616,0.53,On the ground. CIC mode. Battery OK. Transmitter on,wait (1),256.6,0.45,0.06,0,1.87,takeoff,0,0.45,0.17,0,-103.57
2.652,0.53,On the ground. CIC mode. Battery OK. Transmitter on,wait (1),256.7,0.45,0.06,0,1.87,takeoff,0,0.45,0.17,1.52,-103.57
2.683,0.53,On the ground. CIC mode. Battery OK. Transmitter on,wait (1),256.7,0.34,0.22,0,1.87,takeoff,0,0.45,0.17,1.52,-103.57
2.718,0.53,On the ground. CIC mode. Battery OK. Transmitter on,wait (1),256.6,0.34,0.22,0,1.87,takeoff,0,0.45,0.17,1.52,-103.57
2.752,0.53,On the ground. CIC mode. Battery OK. Transmitter on,wait (1),256.8,0.34,0.22,0,1.87,takeoff,0,0.45,0.17,1.52,-103.57
2.785,0.53,On the ground. CIC mode. Battery OK. Transmitter on,wait (1),256.7,0.5,0.22,0,1.87,takeoff,0,0.45,0.17,1.52,-103.57
2.82,0.53,On the ground. CIC mode. Battery OK. Transmitter on,wait (1),256.6,0.5,0.22,0,1.87,takeoff,0,0.45,0.17,1.52,-103.57
2.852,0.53,On the ground. CIC mode. Battery OK. Transmitter on,wait (1),256.8,0.5,0.22,0,1.87,takeoff,0,0.45,0.17,0.3,-103.57
2.892,0.53,On the ground. CIC mode. Battery OK. Transmitter on,wait (1),256.6,0.34,0.22,0,1.87,takeoff,0,0.45,0.17,0.3,-103.57
2.922,0.53,On the ground. CIC mode. Battery OK. Transmitter on,wait (1),256.6,0.34,0.22,0,1.87,takeoff,0,0.45,0.17,0.3,-103.57
2.957,0.53,On the ground. CIC mode. Battery OK. Transmitter on,wait (1),256.8,0.34,0.22,0,1.87,takeoff,0,0.45,0.17,0.3,-103.57
2.988,0.53,On the ground. CIC mode. Battery OK. Transmitter on,wait (1),256.6,0.5,0.17,0,1.83,takeoff,0,0.45,0.17,0.3,-103.57
3.024,0,On the ground. CIC mode. Battery OK. Transmitter on,wait (1),256.7,0.5,0.17,0,1.87,takeoff,0,0.45,0.17,2.13,-103.51
3.059,0,On the ground. CIC mode. Battery OK. Transmitter on,wait (1),256.7,0.5,0.17,0,1.83,takeoff,0,0.45,0.17,2.13,-103.51
3.093,0,On the ground. CIC mode. Battery OK. Transmitter on,wait (1),256.7,0.39,0.11,0,1.87,takeoff,0,0.45,0.17,2.13,-103.51
3.128,0,On the ground. CIC mode. Battery OK. Transmitter on,wait (1),256.6,0.39,0.11,0,1.83,takeoff,0,0.45,0.17,2.13,-103.57
3.161,0,On the ground. CIC mode. Battery OK. Transmitter on,wait (1),256.5,0.39,0.11,0,1.83,takeoff,0,0.45,0.17,2.13,-103.57
3.194,0,On the ground. CIC mode. Battery OK. Transmitter on,wait (1),256.5,0.39,0.11,0,1.83,takeoff,0,0.45,0.17,2.13,-103.57
3.225,0.53,On the ground. CIC mode. Battery OK. Transmitter on,wait (1),256.8,0.39,0.11,0,1.83,takeoff,0,0.45,0.17,2.13,-103.57
3.266,0.53,On the ground. CIC mode. Battery OK. Transmitter on,wait (1),256.7,0.39,0.11,0,1.83,takeoff,0,0.45,0.17,0,-103.57
3.297,0.53,On the ground. CIC mode. Battery OK. Transmitter on,wait (1),256.7,0.45,0.22,0,1.83,takeoff,0,0.45,0.17,0,-103.57
3.329,0.53,On the ground. CIC mode. Battery OK. Transmitter on,wait (1),256.8,0.45,0.22,0,1.83,takeoff,0,0.45,0.17,0,-103.51
3.363,0.53,On the ground. CIC mode. Battery OK. Transmitter on,wait (1),256.7,0.45,0.22,0,1.83,takeoff,0,0.45,0.17,0,-103.51
3.397,0.53,On the ground. CIC mode. Battery OK. Transmitter on,wait (1),256.6,0.39,0.11,0,1.83,takeoff,0,0.45,0.17,0,-103.51
3.429,0.53,On the ground. CIC mode. Battery OK. Transmitter on,wait (1),256.7,0.39,0.11,0,1.83,takeoff,0,0.45,0.17,2.13,-103.57
3.468,0.53,On the ground. CIC mode. Battery OK. Transmitter on,wait (1),256.7,0.39,0.11,0,1.87,takeoff,0,0.45,0.17,2.13,-103.57
3.497,0.53,On the ground. CIC mode. Battery OK. Transmitter on,wait (1),256.7,0.5,0.17,0,1.87,takeoff,0,0.45,0.17,2.13,-103.57
3.533,0.53,On the ground. CIC mode. Battery OK. Transmitter on,wait (1),256.6,0.5,0.17,0,1.87,takeoff,0,0.45,0.17,2.13,-103.57
3.565,0.53,On the ground. CIC mode. Battery OK. Transmitter on,wait (1),256.7,0.5,0.17,0,1.87,takeoff,0,0.45,0.17,2.13,-103.57
3.601,0.53,On the ground. CIC mode. Battery OK. Transmitter on,wait (1),256.7,0.5,0.22,0,1.87,takeoff,0,0.45,0.17,2.13,-103.57
3.633,0.53,On the ground. CIC mode. Battery OK. Transmitter on,wait (1),256.7,0.5,0.22,0,1.87,takeoff,0,0.45,0.17,0.91,-103.57
3.672,0.53,On the ground. CIC mode. Battery OK. Transmitter on,wait (1),256.8,0.5,0.22,0,1.87,takeoff,0,0.45,0.17,0.91,-103.57
3.703,0.53,On the ground. CIC mode. Battery OK. Transmitter on,wait (1),256.7,0.5,0.22,0,1.83,takeoff,0,0.45,0.17,0.91,-103.57
3.735,0.53,On the ground. CIC mode. Battery OK. Transmitter on,wait (1),256.6,0.5,0.22,0,1.87,takeoff,0,0.45,0.17,0.91,-103.51
3.771,0.53,On the ground. CIC mode. Battery OK. Transmitter on,wait (1),256.6,0.5,0.22,0,1.87,takeoff,0,0.45,0.17,0.91,-103.51
3.804,0.53,On the ground. CIC mode. Battery OK. Transmitter on,wait (1),256.7,0.34,0.22,0,1.87,takeoff,0,0.45,0.17,0.91,-103.51
3.841,0.53,On the ground. CIC mode. Battery OK. Transmitter on,wait (1),256.7,0.34,0.22,0,1.87,takeoff,0,0.45,0.17,0.91,-103.51
3.871,0.53,On the ground. CIC mode. Battery OK. Transmitter on,wait (1),256.7,0.34,0.22,0,1.87,takeoff,0,0.45,0.17,0,-103.51
3.907,0.53,On the ground. CIC mode. Battery OK. Transmitter on,wait (1),256.8,0.28,0.17,0,1.87,takeoff,0,0.45,0.17,0,-103.51
3.943,0.53,On the ground. CIC mode. Battery OK. Transmitter on,wait (1),256.8,0.28,0.17,0,1.87,takeoff,0,0.45,0.17,0,-103.51
3.975,0.53,On the ground. CIC mode. Battery OK. Transmitter on,wait (1),256.7,0.28,0.17,0,1.87,takeoff,0,0.45,0.17,0,-103.51
4.008,0.53,On the ground. CIC mode. Battery OK. Transmitter on,wait (1),256.7,0.56,0.17,0,1.87,takeoff,0,0.45,0.17,0,-103.51
4.042,0.53,On the ground. CIC mode. Battery OK. Transmitter on,wait (1),256.8,0.56,0.17,0,1.87,takeoff,0,0.45,0.17,0,-103.51
4.08,0.53,On the ground. CIC mode. Battery OK. Transmitter on,wait (1),256.7,0.56,0.17,0,1.87,takeoff,0,0.45,0.17,0,-103.51
4.11,0.53,On the ground. CIC mode. Battery OK. Transmitter on,wait (1),256.9,0.62,0.17,0,1.87,takeoff,0,0.45,0.17,0,-103.51
4.146,0.53,On the ground. CIC mode. Battery OK. Transmitter on,wait (1),256.8,0.62,0.17,0,1.87,takeoff,0,0.45,0.17,0,-103.51
4.177,0.53,On the ground. CIC mode. Battery OK. Transmitter on,wait (1),256.8,0.62,0.17,0,1.87,takeoff,0,0.45,0.17,0,-103.51
4.212,0.53,On the ground. CIC mode. Battery OK. Transmitter on,wait (1),256.7,0.5,0.22,0,1.91,takeoff,0,0.5,0.17,0,-103.51
4.246,0.53,On the ground. CIC mode. Battery OK. Transmitter on,wait (1),256.8,0.5,0.22,0,1.91,takeoff,0,0.5,0.17,0,-103.51
4.281,0.53,On the ground. CIC mode. Battery OK. Transmitter on,wait (1),256.9,0.5,0.22,0,1.91,takeoff,0,0.5,0.22,0,-103.51
4.316,0.53,On the ground. CIC mode. Battery OK. Transmitter on,wait (1),256.8,0.45,0.11,0,1.91,takeoff,0,0.5,0.22,0,-103.51
4.35,0.53,On the ground. CIC mode. Battery OK. Transmitter on,wait (1),256.7,0.45,0.11,0,1.91,takeoff,0,0.5,0.17,0,-103.57
4.381,0.53,On the ground. CIC mode. Battery OK. Transmitter on,wait (1),256.9,0.45,0.11,0,1.91,takeoff,0,0.5,0.22,0,-103.57
4.416,0.53,On the ground. CIC mode. Battery OK. Transmitter on,wait (1),256.6,0.5,0.06,0,1.91,takeoff,0,0.5,0.22,0,-103.57
4.447,0.53,On the ground. CIC mode. Battery OK. Transmitter on,wait (1),256.6,0.5,0.06,0,1.94,takeoff,0,0.5,0.22,0.91,-103.57
4.488,0.53,On the ground. CIC mode. Battery OK. Transmitter on,wait (1),256.6,0.5,0.06,0,1.94,takeoff,0,0.5,0.17,0.91,-103.57
4.517,0.53,On the ground. CIC mode. Battery OK. Transmitter on,wait (1),256.8,0.56,0.17,0,1.94,takeoff,0,0.5,0.22,0.91,-103.57
4.552,0.53,On the ground. CIC mode. Battery OK. Transmitter on,wait (1),256.5,0.56,0.17,0,1.94,takeoff,0,0.5,0.17,0.91,-103.51
4.585,0.53,On the ground. CIC mode. Battery OK. Transmitter on,wait (1),256.5,0.56,0.17,0,1.94,takeoff,0,0.5,0.17,0.91,-103.51
4.62,0.53,On the ground. CIC mode. Battery OK. Transmitter on,wait (1),256.8,0.56,0.11,0,1.94,takeoff,0,0.5,0.17,0.91,-103.51
4.654,0.53,On the ground. CIC mode. Battery OK. Transmitter on,wait (1),256.6,0.56,0.11,0,1.94,takeoff,0,0.5,0.17,0,-103.57
4.691,0.53,On the ground. CIC mode. Battery OK. Transmitter on,wait (1),256.8,0.56,0.11,0,1.94,takeoff,0,0.5,0.17,0,-103.57
4.722,0.53,On the ground. CIC mode. Battery OK. Transmitter on,wait (1),256.7,0.62,0.17,0,1.94,takeoff,0,0.5,0.17,0,-103.57
4.754,0.53,On the ground. CIC mode. Battery OK. Transmitter on,wait (1),256.8,0.62,0.17,0,1.94,takeoff,0,0.5,0.17,0,-103.57
4.79,0.53,On the ground. CIC mode. Battery OK. Transmitter on,wait (1),256.8,0.62,0.17,0,1.94,takeoff,0,0.5,0.17,0,-103.57
4.824,0.53,On the ground. CIC mode. Battery OK. Transmitter on,wait (1),256.9,0.45,0.11,0,1.94,takeoff,0,0.5,0.17,0,-103.57
4.86,0,On the ground. CIC mode. Battery OK. Transmitter on,wait (1),256.9,0.45,0.11,0,1.94,takeoff,0,0.5,0.17,0,-103.57
4.892,0,On the ground. CIC mode. Battery OK. Transmitter on,wait (1),256.8,0.45,0.11,0,1.94,takeoff,0,0.5,0.17,0,-103.57
4.926,0,On the ground. CIC mode. Battery OK. Transmitter on,wait (1),256.9,0.39,0.28,0,1.91,takeoff,0,0.5,0.17,0,-103.57
4.959,0,On the ground. CIC mode. Battery OK. Transmitter on,wait (1),256.6,0.39,0.28,0,1.94,takeoff,0,0.5,0.17,0,-103.51
4.994,0,On the ground. CIC mode. Battery OK. Transmitter on,wait (1),256.8,0.39,0.28,0,1.94,takeoff,0,0.5,0.17,0,-103.51
5.026,0,On the ground. CIC mode. Battery OK. Transmitter on,wait (1),256.8,0.45,0.22,0,1.94,takeoff,0,0.5,0.17,0,-103.51
5.061,0.53,On the ground. CIC mode. Battery OK. Transmitter on,wait (1),256.9,0.45,0.22,0,1.94,takeoff,0,0.5,0.17,0,-103.51
5.094,0.53,On the ground. CIC mode. Battery OK. Transmitter on,wait (1),256.8,0.45,0.22,0,1.94,takeoff,0,0.5,0.17,0,-103.51
5.133,0.53,On the ground. CIC mode. Battery OK. Transmitter on,wait (1),256.8,0.5,0.22,0,1.94,takeoff,0,0.5,0.17,0,-103.51
5.163,0.53,On the ground. CIC mode. Battery OK. Transmitter on,wait (1),256.8,0.5,0.22,0,1.94,takeoff,0,0.5,0.17,0,-103.51
5.199,0.53,On the ground. CIC mode. Battery OK. Transmitter on,wait (1),256.8,0.5,0.22,0,1.94,takeoff,0,0.5,0.17,0,-103.51
5.23,0.53,On the ground. CIC mode. Battery OK. Transmitter on,wait (1),256.7,0.5,0.22,0,1.94,takeoff,0,0.5,0.17,0,-103.51
5.267,0.53,On the ground. CIC mode. Battery OK. Transmitter on,wait (1),256.8,0.5,0.22,0,1.94,takeoff,0,0.5,0.17,0.61,-103.51
5.301,0.53,On the ground. CIC mode. Battery OK. Transmitter on,wait (1),256.8,0.5,0.22,0,1.94,takeoff,0,0.5,0.17,0.61,-103.51
5.335,0.53,On the ground. CIC mode. Battery OK. Transmitter on,wait (1),256.7,0.45,0.22,0,1.94,takeoff,0,0.5,0.17,0.61,-103.51
5.366,0.53,On the ground. CIC mode. Battery OK. Transmitter on,wait (1),256.9,0.45,0.22,0,1.94,takeoff,0,0.5,0.17,0.61,-103.51
5.402,0.53,On the ground. CIC mode. Battery OK. Transmitter on,wait (1),256.9,0.45,0.22,0,1.94,takeoff,0,0.5,0.17,0.61,-103.51
5.434,0.53,On the ground. CIC mode. Battery OK. Transmitter on,wait (1),256.9,0.5,0.06,0,1.94,takeoff,0,0.5,0.17,0.61,-103.51
5.469,0.53,On the ground. CIC mode. Battery OK. Transmitter on,wait (1),256.8,0.5,0.06,0,1.94,takeoff,0,0.5,0.17,1.22,-103.51
5.504,0.53,On the ground. CIC mode. Battery OK. Transmitter on,wait (1),256.9,0.5,0.06,0,1.94,takeoff,0,0.5,0.17,1.22,-103.51
5.539,0.53,On the ground. CIC mode. Battery OK. Transmitter on,wait (1),256.9,0.45,0.17,0,1.94,takeoff,0,0.5,0.17,1.22,-103.51
5.571,0.53,On the ground. CIC mode. Battery OK. Transmitter on,wait (1),256.8,0.45,0.17,0,1.94,takeoff,0,0.5,0.17,1.22,-103.51
5.605,0.53,On the ground. CIC mode. Battery OK. Transmitter on,wait (1),256.8,0.45,0.17,0,1.94,takeoff,0,0.5,0.17,1.22,-103.51
5.637,0.53,On the ground. CIC mode. Battery OK. Transmitter on,wait (1),257,0.39,0.17,0,1.94,takeoff,0,0.5,0.17,1.22,-103.51
5.675,0.53,On the ground. CIC mode. Battery OK. Transmitter on,wait (1),256.8,0.39,0.17,0,1.94,takeoff,0,0.56,0.17,1.22,-103.51
5.709,0.53,On the ground. CIC mode. Battery OK. Transmitter on,wait (1),256.8,0.39,0.17,0,1.94,takeoff,0,0.5,0.17,0,-103.51
5.744,0.53,On the ground. CIC mode. Battery OK. Transmitter on,wait (1),256.8,0.5,0.22,0,1.94,takeoff,0,0.5,0.17,0,-103.51
5.778,0.53,On the ground. CIC mode. Battery OK. Transmitter on,wait (1),256.8,0.5,0.22,0,1.94,takeoff,0,0.5,0.17,0,-103.51
5.809,0.53,On the ground. CIC mode. Battery OK. Transmitter on,wait (1),256.6,0.5,0.22,0,1.94,takeoff,0,0.56,0.17,0,-103.51
5.843,0.53,On the ground. CIC mode. Battery OK. Transmitter on,wait (1),256.9,0.5,0.11,0,1.94,takeoff,0,0.56,0.17,0,-103.51
5.876,0.53,On the ground. CIC mode. Battery OK. Transmitter on,wait (1),256.9,0.5,0.11,0,1.94,takeoff,0,0.56,0.17,1.22,-103.51
5.914,0.53,On the ground. CIC mode. Battery OK. Transmitter on,wait (1),256.7,0.5,0.11,0,1.94,takeoff,0,0.56,0.17,1.22,-103.51
5.945,0.53,On the ground. CIC mode. Battery OK. Transmitter on,wait (1),256.8,0.5,0.11,0,1.94,takeoff,0,0.56,0.17,1.22,-103.51
5.978,0.53,On the ground. CIC mode. Battery OK. Transmitter on,wait (1),257,0.5,0.11,0,1.94,takeoff,0,0.56,0.17,1.22,-103.51
6.012,0.53,On the ground. CIC mode. Battery OK. Transmitter on,wait (1),256.9,0.5,0.11,0,1.94,takeoff,0,0.56,0.17,1.22,-103.51
6.045,0.53,On the ground. CIC mode. Battery OK. Transmitter on,wait (1),257.1,0.62,0.17,0,1.94,takeoff,0,0.56,0.17,1.22,-103.51
6.08,0.53,On the ground. CIC mode. Battery OK. Transmitter on,wait (1),256.9,0.62,0.17,0,1.94,takeoff,0,0.56,0.17,1.22,-103.46
6.113,0.53,On the ground. CIC mode. Battery OK. Transmitter on,wait (1),257,0.62,0.17,0,1.94,takeoff,0,0.56,0.17,1.52,-103.46
6.153,0.53,On the ground. CIC mode. Battery OK. Transmitter on,wait (1),256.9,0.5,0.17,0,1.94,takeoff,0,0.56,0.17,1.52,-103.46
6.181,0.53,On the ground. CIC mode. Battery OK. Transmitter on,wait (1),256.9,0.5,0.17,0,1.94,takeoff,0,0.56,0.17,1.52,-103.46
6.218,0.53,On the ground. CIC mode. Battery OK. Transmitter on,wait (1),256.8,0.5,0.17,0,1.94,takeoff,0,0.56,0.17,1.52,-103.46
6.249,0.53,On the ground. CIC mode. Battery OK. Transmitter on,wait (1),257,0.56,0.11,0,1.94,takeoff,0,0.56,0.17,1.52,-103.46
6.285,0.53,On the ground. CIC mode. Battery OK. Transmitter on,wait (1),257,0.56,0.11,0,1.98,takeoff,0,0.56,0.17,0,-103.46
6.319,0.53,On the ground. CIC mode. Battery OK. Transmitter on,wait (1),257,0.56,0.11,0,1.94,takeoff,0,0.56,0.17,0,-103.46
6.354,0.53,On the ground. CIC mode. Battery OK. Transmitter on,wait (1),256.8,0.34,0.17,0,1.98,takeoff,0,0.56,0.17,0,-103.46
6.385,0.53,On the ground. CIC mode. Battery OK. Transmitter on,wait (1),256.9,0.34,0.17,0,1.98,takeoff,0,0.56,0.17,0,-103.46
6.42,0.53,On the ground. CIC mode. Battery OK. Transmitter on,wait (1),257,0.34,0.17,0,1.94,takeoff,0,0.56,0.17,0,-103.46
6.453,0.53,On the ground. CIC mode. Battery OK. Transmitter on,wait (1),257,0.39,0.11,0,1.98,takeoff,0,0.56,0.17,0,-103.46
6.49,0.53,On the ground. CIC mode. Battery OK. Transmitter on,wait (1),257,0.39,0.11,0,1.98,takeoff,0,0.56,0.17,1.83,-103.46
6.525,0.53,On the ground. CIC mode. Battery OK. Transmitter on,wait (1),257,0.39,0.11,0,1.98,takeoff,0,0.56,0.17,1.83,-103.46
6.558,0.53,On the ground. CIC mode. Battery OK. Transmitter on,wait (1),256.9,0.39,0.17,0,1.98,takeoff,0,0.56,0.17,1.83,-103.46
6.589,0.53,On the ground. CIC mode. Battery OK. Transmitter on,wait (1),256.8,0.39,0.17,0,1.98,takeoff,0,0.56,0.17,1.83,-103.46
6.624,0.53,On the ground. CIC mode. Battery OK. Transmitter on,wait (1),257,0.39,0.17,0,1.98,takeoff,0,0.56,0.17,1.83,-103.46
6.659,0.53,On the ground. CIC mode. Battery OK. Transmitter on,wait (1),257,0.5,0.17,0,1.98,takeoff,0,0.56,0.17,1.83,-103.46
6.692,0,On the ground. CIC mode. Battery OK. Transmitter on,wait (1),257,0.5,0.17,0,1.98,takeoff,0,0.56,0.17,2.13,-103.46
6.729,0,On the ground. CIC mode. Battery OK. Transmitter on,wait (1),256.9,0.5,0.17,0,1.98,takeoff,0,0.56,0.17,2.13,-103.46
6.759,0,On the ground. CIC mode. Battery OK. Transmitter on,wait (1),256.9,0.56,0.11,0,1.98,takeoff,0,0.56,0.17,2.13,-103.46
6.795,0,On the ground. CIC mode. Battery OK. Transmitter on,wait (1),257,0.56,0.11,0,1.98,takeoff,0,0.56,0.17,2.13,-103.46
6.826,0,On the ground. CIC mode. Battery OK. Transmitter on,wait (1),256.8,0.56,0.11,0,1.98,takeoff,0,0.56,0.17,2.13,-103.46
6.865,0,On the ground. CIC mode. Battery OK. Transmitter on,wait (1),256.8,0.45,0.22,0,2.02,takeoff,0,0.56,0.17,2.13,-103.46
6.897,0,On the ground. CIC mode. Battery OK. Transmitter on,wait (1),256.8,0.45,0.22,0,2.02,takeoff,0,0.5,0.17,2.13,-103.46
6.931,0.53,On the ground. CIC mode. Battery OK. Transmitter on,wait (1),256.7,0.45,0.22,0,2.02,takeoff,0,0.5,0.17,0,-103.46
6.964,0.53,On the ground. CIC mode. Battery OK. Transmitter on,wait (1),256.8,0.45,0.22,0,2.02,takeoff,0,0.56,0.17,0,-103.46
6.999,0.53,On the ground. CIC mode. Battery OK. Transmitter on,wait (1),257,0.45,0.22,0,2.02,takeoff,0,0.56,0.17,0,-103.46
7.031,0.53,On the ground. CIC mode. Battery OK. Transmitter on,wait (1),257,0.45,0.22,0,2.02,takeoff,0,0.56,0.17,0,-103.46
7.069,0.53,On the ground. CIC mode. Battery OK. Transmitter on,wait (1),256.8,0.39,0.17,0,2.02,takeoff,0,0.5,0.17,0,-103.46
7.099,0.53,On the ground. CIC mode. Battery OK. Transmitter on,wait (1),256.8,0.39,0.17,0,1.98,takeoff,0,0.5,0.17,0,-103.46
7.136,0.53,On the ground. CIC mode. Battery OK. Transmitter on,wait (1),256.8,0.39,0.17,0,2.02,takeoff,0,0.5,0.17,0.3,-103.46
7.168,0.53,On the ground. CIC mode. Battery OK. Transmitter on,wait (1),256.7,0.39,0.17,0,1.98,takeoff,0,0.5,0.17,0.3,-103.46
7.204,0.53,On the ground. CIC mode. Battery OK. Transmitter on,wait (1),256.9,0.39,0.17,0,1.98,takeoff,0,0.56,0.17,0.3,-103.46
7.238,0.53,On the ground. CIC mode. Battery OK. Transmitter on,wait (1),256.7,0.39,0.17,0,1.98,takeoff,0,0.56,0.17,0.3,-103.46
7.269,0.53,On the ground. CIC mode. Battery OK. Transmitter on,wait (1),256.8,0.56,0.22,0,1.98,takeoff,0,0.56,0.17,0.3,-103.46
7.304,0.53,On the ground. CIC mode. Battery OK. Transmitter on,wait (1),257,0.56,0.22,0,1.98,takeoff,0,0.56,0.17,0,-103.46
7.338,0.53,On the ground. CIC mode. Battery OK. Transmitter on,wait (1),256.8,0.56,0.22,0,1.98,takeoff,0,0.56,0.17,0,-103.46
7.374,0.53,On the ground. CIC mode. Battery OK. Transmitter on,wait (1),256.8,0.45,0.06,0,1.98,takeoff,0,0.56,0.17,0,-103.46
7.405,0.53,On the ground. CIC mode. Battery OK. Transmitter on,wait (1),256.9,0.45,0.06,0,1.94,takeoff,0,0.56,0.17,0,-103.46
7.44,0.53,On the ground. CIC mode. Battery OK. Transmitter on,wait (1),257,0.45,0.06,0,1.94,takeoff,0,0.56,0.17,0,-103.46
7.474,0.53,On the ground. CIC mode. Battery OK. Transmitter on,wait (1),256.8,0.45,0.17,0,1.94,takeoff,0,0.56,0.17,0,-103.46
7.508,0.53,On the ground. CIC mode. Battery OK. Transmitter on,wait (1),256.9,0.45,0.17,0,1.94,takeoff,0,0.56,0.17,1.22,-103.46
7.544,0.53,On the ground. CIC mode. Battery OK. Transmitter on,wait (1),256.8,0.45,0.17,0,1.94,takeoff,0,0.56,0.17,1.22,-103.46
7.574,0.53,On the ground. CIC mode. Battery OK. Transmitter on,wait (1),256.8,0.5,0.11,0,1.94,takeoff,0,0.56,0.17,1.22,-103.46
7.612,0.53,On the ground. CIC mode. Battery OK. Transmitter on,wait (1),256.8,0.5,0.11,0,1.94,takeoff,0,0.5,0.17,1.22,-103.46
7.645,0.53,On the ground. CIC mode. Battery OK. Transmitter on,wait (1),256.7,0.5,0.11,0,1.91,takeoff,0,0.5,0.17,1.22,-103.46
7.678,0.53,On the ground. CIC mode. Battery OK. Transmitter on,wait (1),256.9,0.5,0.17,0,1.91,takeoff,0,0.5,0.17,1.22,-103.46
7.713,0.53,On the ground. CIC mode. Battery OK. Transmitter on,wait (1),256.8,0.5,0.17,0,1.91,takeoff,0,0.5,0.17,1.52,-103.46
7.748,0.53,On the ground. CIC mode. Battery OK. Transmitter on,wait (1),256.9,0.5,0.17,0,1.91,takeoff,0,0.5,0.17,1.52,-103.46
7.782,0.53,On the ground. CIC mode. Battery OK. Transmitter on,wait (1),256.8,0.45,0.17,0,1.91,takeoff,0,0.5,0.17,1.52,-103.46
7.813,0.53,On the ground. CIC mode. Battery OK. Transmitter on,wait (1),256.8,0.45,0.17,0,1.91,takeoff,0,0.5,0.17,1.52,-103.46
7.849,0.53,On the ground. CIC mode. Battery OK. Transmitter on,wait (1),256.8,0.45,0.17,0,1.91,takeoff,0,0.5,0.17,1.52,-103.46
7.881,0.53,On the ground. CIC mode. Battery OK. Transmitter on,wait (1),256.8,0.45,0.17,0,1.91,takeoff,0,0.5,0.17,1.52,-103.46
7.916,0.53,On the ground. CIC mode. Battery OK. Transmitter on,wait (1),256.8,0.45,0.17,0,1.91,takeoff,0,0.5,0.17,1.52,-103.46
7.949,0.53,On the ground. CIC mode. Battery OK. Transmitter on,wait (1),256.8,0.45,0.17,0,1.91,takeoff,0,0.5,0.17,1.22,-103.46
7.985,0.53,On the ground. CIC mode. Battery OK. Transmitter on,wait (1),257,0.5,0.22,0,1.91,takeoff,0,0.5,0.17,1.22,-103.46
8.017,0.53,On the ground. CIC mode. Battery OK. Transmitter on,wait (1),256.9,0.5,0.22,0,1.91,takeoff,0,0.5,0.17,1.22,-103.46
8.054,0.53,On the ground. CIC mode. Battery OK. Transmitter on,wait (1),256.8,0.5,0.22,0,1.91,takeoff,0,0.5,0.17,1.22,-103.46
8.087,0.53,On the ground. CIC mode. Battery OK. Transmitter on,wait (1),256.9,0.34,0.11,0,1.87,takeoff,0,0.5,0.17,1.22,-103.46
8.118,0.53,On the ground. CIC mode. Battery OK. Transmitter on,wait (1),257,0.34,0.11,0,1.87,takeoff,0,0.5,0.17,1.22,-103.46
8.156,0.53,On the ground. CIC mode. Battery OK. Transmitter on,wait (1),256.7,0.34,0.11,0,1.91,takeoff,0,0.5,0.17,0.61,-103.46
8.188,0.53,On the ground. CIC mode. Battery OK. Transmitter on,wait (1),256.6,0.39,0.06,0,1.91,takeoff,0,0.5,0.17,0.61,-103.46
8.223,0.53,On the ground. CIC mode. Battery OK. Transmitter on,wait (1),256.5,0.39,0.06,0,1.87,takeoff,0,0.5,0.17,0.61,-103.46
8.253,0.53,On the ground. CIC mode. Battery OK. Transmitter on,wait (1),256.8,0.39,0.06,0,1.87,takeoff,0,0.5,0.17,0.61,-103.46
8.289,0.53,On the ground. CIC mode. Battery OK. Transmitter on,wait (1),257,0.45,0.17,0,1.91,takeoff,0,0.5,0.17,0.61,-103.46
8.321,0.53,On the ground. CIC mode. Battery OK. Transmitter on,wait (1),256.6,0.45,0.17,0,1.87,takeoff,0,0.5,0.17,0.61,-103.46
8.36,0.53,On the ground. CIC mode. Battery OK. Transmitter on,wait (1),256.9,0.45,0.17,0,1.91,takeoff,0,0.5,0.17,1.22,-103.46
8.392,0.53,On the ground. CIC mode. Battery OK. Transmitter on,wait (1),256.7,0.5,0.11,0,1.87,takeoff,0,0.5,0.17,1.22,-103.46
8.424,0.53,On the ground. CIC mode. Battery OK. Transmitter on,wait (1),256.7,0.5,0.11,0,1.91,takeoff,0,0.5,0.17,1.22,-103.46
8.459,0.53,On the ground. CIC mode. Battery OK. Transmitter on,wait (1),256.9,0.5,0.11,0,1.91,takeoff,0,0.5,0.17,1.22,-103.46
8.491,0.53,On the ground. CIC mode. Battery OK. Transmitter on,wait (1),256.9,0.56,0.22,0,1.91,takeoff,0,0.5,0.17,1.22,-103.46
8.527,0,On the ground. CIC mode. Battery OK. Transmitter on,wait (1),256.9,0.56,0.22,0,1.91,takeoff,0,0.5,0.17,0.91,-103.46
8.562,0,On the ground. CIC mode. Battery OK. Transmitter on,wait (1),257,0.56,0.22,0,1.91,takeoff,0,0.5,0.17,0.91,-103.46
8.596,0,On the ground. CIC mode. Battery OK. Transmitter on,wait (1),256.9,0.39,0.11,0,1.91,takeoff,0,0.5,0.17,0.91,-103.46
8.628,0,On the ground. CIC mode. Battery OK. Transmitter on,wait (1),256.8,0.39,0.11,0,1.91,takeoff,0,0.5,0.17,0.91,-103.46
8.663,0,On the ground. CIC mode. Battery OK. Transmitter on,wait (1),256.9,0.39,0.11,0,1.91,takeoff,0,0.5,0.17,0.91,-103.46
8.695,0,On the ground. CIC mode. Battery OK. Transmitter on,wait (1),256.7,0.5,0.11,0,1.91,takeoff,0,0.5,0.17,0.91,-103.46
8.731,0.53,On the ground. CIC mode. Battery OK. Transmitter on,wait (1),256.8,0.5,0.11,0,1.91,takeoff,0,0.5,0.17,0,-103.46
8.766,0.53,On the ground. CIC mode. Battery OK. Transmitter on,wait (1),256.7,0.5,0.11,0,1.91,takeoff,0,0.5,0.17,0,-103.46
8.8,0.53,On the ground. CIC mode. Battery OK. Transmitter on,wait (1),256.9,0.45,0.11,0,1.91,takeoff,0,0.5,0.17,0,-103.46
8.83,0.53,On the ground. CIC mode. Battery OK. Transmitter on,wait (1),256.7,0.45,0.11,0,1.91,takeoff,0,0.5,0.17,0,-103.46
8.868,0.53,On the ground. CIC mode. Battery OK. Transmitter on,wait (1),256.9,0.45,0.11,0,1.91,takeoff,0,0.5,0.17,0,-103.46
8.898,0.53,On the ground. CIC mode. Battery OK. Transmitter on,wait (1),256.8,0.39,0.06,0,1.91,takeoff,0,0.5,0.17,0,-103.46
8.936,0.53,On the ground. CIC mode. Battery OK. Transmitter on,wait (1),256.8,0.39,0.06,0,1.94,takeoff,0,0.5,0.17,1.22,-103.46
8.969,0.53,On the ground. CIC mode. Battery OK. Transmitter on,wait (1),256.6,0.39,0.06,0,1.91,takeoff,0,0.5,0.17,1.22,-103.46
9.001,0.53,On the ground. CIC mode. Battery OK. Transmitter on,wait (1),256.8,0.5,0.22,0,1.94,takeoff,0,0.5,0.17,1.22,-103.46
9.038,0.53,On the ground. CIC mode. Battery OK. Transmitter on,wait (1),256.8,0.5,0.22,0,1.94,takeoff,0,0.5,0.17,1.22,-103.46
9.067,0.53,On the ground. CIC mode. Battery OK. Transmitter on,wait (1),256.8,0.5,0.22,0,1.94,takeoff,0,0.5,0.17,1.22,-103.46
9.104,0.53,On the ground. CIC mode. Battery OK. Transmitter on,wait (1),256.9,0.45,0.22,0,1.94,takeoff,0,0.5,0.17,1.22,-103.46
9.137,0.53,On the ground. CIC mode. Battery OK. Transmitter on,wait (1),256.8,0.45,0.22,0,1.94,takeoff,0,0.5,0.17,1.22,-103.4
9.172,0.53,On the ground. CIC mode. Battery OK. Transmitter on,wait (1),256.7,0.45,0.22,0,1.98,takeoff,0,0.5,0.17,0,-103.4
9.204,0.53,On the ground. CIC mode. Battery OK. Transmitter on,wait (1),256.7,0.39,0.06,0,1.98,takeoff,0,0.5,0.17,0,-103.4
9.237,0.53,On the ground. CIC mode. Battery OK. Transmitter on,wait (1),256.8,0.39,0.06,0,1.98,takeoff,0,0.5,0.17,0,-103.4
9.276,0.53,On the ground. CIC mode. Battery OK. Transmitter on,wait (1),256.9,0.39,0.06,0,1.98,takeoff,0,0.5,0.17,0,-103.4
9.308,0.53,On the ground. CIC mode. Battery OK. Transmitter on,wait (1),256.9,0.56,0.17,0,1.98,takeoff,0,0.5,0.17,0,-103.4
9.344,0.53,On the ground. CIC mode. Battery OK. Transmitter on,wait (1),256.8,0.56,0.17,0,1.98,takeoff,0,0.5,0.17,0.3,-103.46
9.376,0.53,On the ground. CIC mode. Battery OK. Transmitter on,wait (1),256.8,0.56,0.17,0,1.98,takeoff,0,0.5,0.17,0.3,-103.46
9.411,0.53,On the ground. CIC mode. Battery OK. Transmitter on,wait (1),256.8,0.56,0.11,0,1.98,takeoff,0,0.5,0.17,0.3,-103.46
9.446,0.53,On the ground. CIC mode. Battery OK. Transmitter on,wait (1),256.7,0.56,0.11,0,1.98,takeoff,0,0.5,0.17,0.3,-103.46
9.48,0.53,On the ground. CIC mode. Battery OK. Transmitter on,wait (1),256.6,0.56,0.11,0,2.02,takeoff,0,0.5,0.17,0.3,-103.46
9.511,0.53,On the ground. CIC mode. Battery OK. Transmitter on,wait (1),256.9,0.56,0.11,0,1.98,takeoff,0,0.5,0.17,0.3,-103.46
9.546,0.53,On the ground. CIC mode. Battery OK. Transmitter on,wait (1),256.6,0.56,0.11,0,2.02,takeoff,0,0.5,0.17,0,-103.46
9.582,0.53,On the ground. CIC mode. Battery OK. Transmitter on,wait (1),256.5,0.56,0.11,0,2.02,takeoff,0,0.5,0.17,0,-103.46
9.615,0.53,On the ground. CIC mode. Battery OK. Transmitter on,wait (1),256.7,0.56,0.17,0,2.02,takeoff,0,0.5,0.17,0,-103.46
9.646,0.53,On the ground. CIC mode. Battery OK. Transmitter on,wait (1),256.6,0.56,0.17,0,2.02,takeoff,0,0.5,0.17,0,-103.4
9.682,0.53,On the ground. CIC mode. Battery OK. Transmitter on,wait (1),256.6,0.56,0.17,0,2.02,takeoff,0,0.5,0.17,0,-103.4
9.715,0.53,On the ground. CIC mode. Battery OK. Transmitter on,wait (1),256.8,0.56,0,0,2.02,takeoff,0,0.5,0.17,0,-103.4
9.753,0.53,On the ground. CIC mode. Battery OK. Transmitter on,wait (1),256.8,0.56,0,0,2.02,takeoff,0,0.5,0.17,1.52,-103.46
9.787,0.53,On the ground. CIC mode. Battery OK. Transmitter on,wait (1),256.7,0.56,0,0,2.02,takeoff,0,0.5,0.17,1.52,-103.46
9.819,0.53,On the ground. CIC mode. Battery OK. Transmitter on,wait (1),256.8,0.39,-0.06,0,2.02,takeoff,0,0.5,0.17,1.52,-103.46
9.851,0.53,On the ground. CIC mode. Battery OK. Transmitter on,wait (1),256.8,0.39,-0.06,0,2.02,takeoff,0,0.5,0.17,1.52,-103.46
9.886,0.53,On the ground. CIC mode. Battery OK. Transmitter on,wait (1),256.8,0.39,-0.06,0,2.02,takeoff,0,0.5,0.17,1.52,-103.46
9.921,0.53,On the ground. CIC mode. Battery OK. Transmitter on,wait (1),256.7,0.34,0,0,2.02,takeoff,0,0.5,0.11,1.52,-103.46
9.953,0.53,On the ground. CIC mode. Battery OK. Transmitter on,wait (1),257,0.34,0,0,2.02,takeoff,0,0.5,0.11,0.61,-103.46
9.991,0.53,On the ground. CIC mode. Battery OK. Transmitter on,wait (1),256.6,0.34,0,0,2.02,takeoff,0,0.5,0.11,0.61,-103.46
10.021,0.53,On the ground. CIC mode. Battery OK. Transmitter on,wait (1),256.7,0.45,0.17,0,2.02,takeoff,0,0.5,0.11,0.61,-103.46
10.057,0.53,On the ground. CIC mode. Battery OK. Transmitter on,wait (1),256.7,0.45,0.17,0,2.02,takeoff,0,0.5,0.11,0.61,-103.46
10.09,0.53,On the ground. CIC mode. Battery OK. Transmitter on,wait (1),256.6,0.45,0.17,0,2.02,takeoff,0,0.5,0.11,0.61,-103.46
10.126,0.53,On the ground. CIC mode. Battery OK. Transmitter on,wait (1),256.9,0.34,0.11,0,2.06,takeoff,0,0.5,0.11,0.61,-103.46
10.157,0.53,On the ground. CIC mode. Battery OK. Transmitter on,wait (1),256.9,0.34,0.11,0,2.02,takeoff,0,0.5,0.11,0.61,-103.46
10.195,0.53,On the ground. CIC mode. Battery OK. Transmitter on,wait (1),256.8,0.34,0.11,0,2.06,takeoff,0,0.5,0.11,1.22,-103.46
10.226,0.53,On the ground. CIC mode. Battery OK. Transmitter on,wait (1),256.8,0.45,0.11,0,2.02,takeoff,0,0.5,0.11,1.22,-103.46
10.261,0.53,On the ground. CIC mode. Battery OK. Transmitter on,wait (1),256.8,0.45,0.11,0,2.06,takeoff,0,0.5,0.11,1.22,-103.46
10.292,0.53,On the ground. CIC mode. Battery OK. Transmitter on,wait (1),256.9,0.45,0.11,0,2.06,takeoff,0,0.5,0.11,1.22,-103.46
10.331,0.53,On the ground. CIC mode. Battery OK. Transmitter on,wait (1),256.8,0.22,0.17,0,2.06,takeoff,0,0.5,0.11,1.22,-103.46
10.361,0,On the ground. CIC mode. Battery OK. Transmitter on,wait (1),257.1,0.22,0.17,0,2.06,takeoff,0,0.5,0.11,1.22,-103.4
10.397,0,On the ground. CIC mode. Battery OK. Transmitter on,wait (1),256.8,0.22,0.17,0,2.06,takeoff,0,0.45,0.11,0,-103.4
10.432,0,On the ground. CIC mode. Battery OK. Transmitter on,wait (1),256.7,0.34,0.17,0,2.06,takeoff,0,0.5,0.11,0,-103.4
10.463,0,On the ground. CIC mode. Battery OK. Transmitter on,wait (1),256.9,0.34,0.17,0,2.06,takeoff,0,0.5,0.11,0,-103.4
10.497,0,On the ground. CIC mode. Battery OK. Transmitter on,wait (1),256.8,0.34,0.17,0,2.06,takeoff,0,0.5,0.11,0,-103.4
10.532,0,On the ground. CIC mode. Battery OK. Transmitter on,wait (1),256.9,0.62,0.11,0,2.06,takeoff,0,0.5,0.17,0,-103.4
10.563,0.53,On the ground. CIC mode. Battery OK. Transmitter on,wait (1),256.6,0.62,0.11,0,2.06,takeoff,0,0.5,0.11,0,-103.4
10.602,0.53,On the ground. CIC mode. Battery OK. Transmitter on,wait (1),256.7,0.62,0.11,0,2.1,takeoff,0,0.5,0.17,0.91,-103.4
10.635,0.53,On the ground. CIC mode. Battery OK. Transmitter on,wait (1),256.7,0.39,0.06,0,2.06,takeoff,0,0.45,0.17,0.91,-103.4
10.668,0.53,On the ground. CIC mode. Battery OK. Transmitter on,wait (1),256.5,0.39,0.06,0,2.06,takeoff,0,0.45,0.17,0.91,-103.46
10.702,0.53,On the ground. CIC mode. Battery OK. Transmitter on,wait (1),256.6,0.39,0.06,0,2.1,takeoff,0,0.45,0.17,0.91,-103.46
10.736,0.53,On the ground. CIC mode. Battery OK. Transmitter on,wait (1),256.7,0.5,0.22,0,2.06,takeoff,0,0.45,0.17,0.91,-103.46
10.769,0.53,On the ground. CIC mode. Battery OK. Transmitter on,wait (1),256.7,0.5,0.22,0,2.1,takeoff,0,0.45,0.17,0.91,-103.46
10.806,0.53,On the ground. CIC mode. Battery OK. Transmitter on,wait (1),256.5,0.5,0.22,0,2.1,takeoff,0,0.45,0.17,0,-103.46
10.838,0.53,On the ground. CIC mode. Battery OK. Transmitter on,wait (1),256.6,0.45,0.17,0,2.1,takeoff,0,0.45,0.11,0,-103.46
10.872,0.53,On the ground. CIC mode. Battery OK. Transmitter on,wait (1),256.7,0.45,0.17,0,2.1,takeoff,0,0.45,0.11,0,-103.46
10.906,0.53,On the ground. CIC mode. Battery OK. Transmitter on,wait (1),256.7,0.45,0.17,0,2.1,takeoff,0,0.45,0.11,0,-103.46
10.94,0.53,On the ground. CIC mode. Battery OK. Transmitter on,wait (1),256.7,0.39,0.17,0,2.1,takeoff,0,0.45,0.11,0,-103.46
10.975,0.53,On the ground. CIC mode. Battery OK. Transmitter on,wait (1),256.7,0.39,0.17,0,2.1,takeoff,0,0.45,0.11,0,-103.46
11.009,0.53,On the ground. CIC mode. Battery OK. Transmitter on,wait (1),256.6,0.39,0.17,0,2.1,takeoff,0,0.45,0.11,0,-103.46
11.044,0.53,On the ground. CIC mode. Battery OK. Transmitter on,wait (1),256.7,0.45,0.17,0,2.1,takeoff,0,0.45,0.11,0,-103.46
11.076,0.53,On the ground. CIC mode. Battery OK. Transmitter on,wait (1),256.7,0.45,0.17,0,2.1,takeoff,0,0.45,0.11,0,-103.46
11.111,0.53,On the ground. CIC mode. Battery OK. Transmitter on,wait (1),256.7,0.45,0.17,0,2.1,takeoff,0,0.45,0.11,0,-103.46
11.144,0.53,On the ground. CIC mode. Battery OK. Transmitter on,wait (1),256.9,0.39,0.17,0,2.1,takeoff,0,0.45,0.17,0,-103.46
11.175,0.53,On the ground. CIC mode. Battery OK. Transmitter on,wait (1),256.6,0.39,0.17,0,2.1,takeoff,0,0.45,0.17,1.22,-103.46
11.214,0.53,On the ground. CIC mode. Battery OK. Transmitter on,wait (1),256.8,0.39,0.17,0,2.1,takeoff,0,0.45,0.17,1.22,-103.46
11.243,0.53,On the ground. CIC mode. Battery OK. Transmitter on,wait (1),256.7,0.45,0.22,0,2.1,takeoff,0,0.45,0.17,1.22,-103.46
11.28,0.53,On the ground. CIC mode. Battery OK. Transmitter on,wait (1),256.7,0.45,0.22,0,2.1,takeoff,0,0.45,0.17,1.22,-103.4
11.313,0.53,On the ground. CIC mode. Battery OK. Transmitter on,wait (1),256.8,0.45,0.22,0,2.1,takeoff,0,0.45,0.17,1.22,-103.4
11.347,0.53,On the ground. CIC mode. Battery OK. Transmitter on,wait (1),256.7,0.34,0.22,0,2.1,takeoff,0,0.45,0.17,1.22,-103.4
11.38,0.53,On the ground. CIC mode. Battery OK. Transmitter on,wait (1),256.6,0.34,0.22,0,2.1,takeoff,0,0.45,0.17,1.22,-103.4
11.415,0.53,On the ground. CIC mode. Battery OK. Transmitter on,wait (1),256.7,0.34,0.22,0,2.1,takeoff,0,0.45,0.17,0,-103.4
11.45,0.53,On the ground. CIC mode. Battery OK. Transmitter on,wait (1),256.6,0.5,0.22,0,2.1,takeoff,0,0.39,0.17,0,-103.4
11.481,0.53,On the ground. CIC mode. Battery OK. Transmitter on,wait (1),256.6,0.5,0.22,0,2.1,takeoff,0,0.39,0.17,0,-103.4
11.519,0.53,On the ground. CIC mode. Battery OK. Transmitter on,wait (1),256.6,0.5,0.22,0,2.1,takeoff,0,0.39,0.17,0,-103.4
11.55,0.53,On the ground. CIC mode. Battery OK. Transmitter on,wait (1),256.6,0.45,0.11,0,2.06,takeoff,0,0.39,0.17,0,-103.4
11.585,0.53,On the ground. CIC mode. Battery OK. Transmitter on,wait (1),256.5,0.45,0.11,0,2.1,takeoff,0,0.39,0.17,0,-103.4
11.618,0.53,On the ground. CIC mode. Battery OK. Transmitter on,wait (1),256.5,0.45,0.11,0,2.06,takeoff,0,0.39,0.17,0.91,-103.4
11.655,0.53,On the ground. CIC mode. Battery OK. Transmitter on,wait (1),256.5,0.45,0.22,0,2.06,takeoff,0,0.39,0.17,0.91,-103.4
11.685,0.53,On the ground. CIC mode. Battery OK. Transmitter on,wait (1),256.7,0.45,0.22,0,2.06,takeoff,0,0.39,0.17,0.91,-103.4
11.722,0.53,On the ground. CIC mode. Battery OK. Transmitter on,wait (1),256.6,0.45,0.22,0,2.06,takeoff,0,0.39,0.17,0.91,-103.4
11.754,0.53,On the ground. CIC mode. Battery OK. Transmitter on,wait (1),256.6,0.56,0.34,0,2.06,takeoff,0,0.39,0.17,0.91,-103.4
11.79,0.53,On the ground. CIC mode. Battery OK. Transmitter on,wait (1),256.6,0.56,0.34,0,2.06,takeoff,0,0.39,0.17,1.22,-103.4
11.824,0.53,On the ground. CIC mode. Battery OK. Transmitter on,wait (1),256.5,0.56,0.34,0,2.06,takeoff,0,0.39,0.17,1.22,-103.4
11.858,0.53,On the ground. CIC mode. Battery OK. Transmitter on,wait (1),256.6,0.5,0.11,0,2.06,takeoff,0,0.39,0.17,1.22,-103.4
11.889,0.53,On the ground. CIC mode. Battery OK. Transmitter on,wait (1),256.4,0.5,0.11,0,2.02,takeoff,0,0.39,0.17,1.22,-103.4
11.924,0.53,On the ground. CIC mode. Battery OK. Transmitter on,wait (1),256.5,0.5,0.11,0,2.02,takeoff,0,0.39,0.17,1.22,-103.4
11.959,0.53,On the ground. CIC mode. Battery OK. Transmitter on,wait (1),256.6,0.5,0.22,0,2.02,takeoff,0,0.39,0.17,1.22,-103.4
11.993,0.53,On the ground. CIC mode. Battery OK. Transmitter on,wait (1),256.6,0.5,0.22,0,2.02,takeoff,0,0.39,0.17,0,-103.4
12.03,0.53,On the ground. CIC mode. Battery OK. Transmitter on,wait (1),256.6,0.5,0.22,0,2.02,takeoff,0,0.39,0.17,0,-103.4
12.06,0.53,On the ground. CIC mode. Battery OK. Transmitter on,wait (1),256.3,0.39,0.06,0,2.02,takeoff,0,0.39,0.17,0,-103.4
12.095,0.53,On the ground. CIC mode. Battery OK. Transmitter on,wait (1),256.5,0.39,0.06,0,2.02,takeoff,0,0.39,0.17,0,-103.4
12.126,0.53,On the ground. CIC mode. Battery OK. Transmitter on,wait (1),256.8,0.39,0.06,0,2.02,takeoff,0,0.39,0.17,0,-103.4
12.163,0.53,On the ground. CIC mode. Battery OK. Transmitter on,wait (1),256.5,0.45,0.17,0,2.02,takeoff,0,0.45,0.17,0,-103.4
12.195,0,On the ground. CIC mode. Battery OK. Transmitter on,wait (1),256.6,0.45,0.17,0,2.02,takeoff,0,0.45,0.17,1.22,-103.4
12.234,0,On the ground. CIC mode. Battery OK. Transmitter on,wait (1),256.7,0.45,0.17,0,2.02,takeoff,0,0.45,0.17,1.22,-103.4
12.265,0,On the ground. CIC mode. Battery OK. Transmitter on,wait (1),256.6,0.45,0.28,0,2.02,takeoff,0,0.45,0.17,1.22,-103.4
12.3,0,On the ground. CIC mode. Battery OK. Transmitter on,wait (1),256.7,0.45,0.28,0,2.02,takeoff,0,0.45,0.17,1.22,-103.4
12.33,0,On the ground. CIC mode. Battery OK. Transmitter on,wait (1),256.7,0.45,0.28,0,2.02,takeoff,0,0.45,0.17,1.22,-103.4
12.367,0,On the ground. CIC mode. Battery OK. Transmitter on,wait (1),256.6,0.39,0.17,0,2.02,takeoff,0,0.45,0.17,1.22,-103.4
12.399,0.53,On the ground. CIC mode. Battery OK. Transmitter on,wait (1),256.6,0.39,0.17,0,2.02,takeoff,0,0.45,0.17,1.22,-103.4
12.439,0.53,On the ground. CIC mode. Battery OK. Transmitter on,wait (1),256.6,0.39,0.17,0,2.02,takeoff,0,0.45,0.17,0,-103.4
12.469,0.53,On the ground. CIC mode. Battery OK. Transmitter on,wait (1),256.6,0.56,0.11,0,2.02,takeoff,0,0.45,0.17,0,-103.4
12.5,0.53,On the ground. CIC mode. Battery OK. Transmitter on,wait (1),256.7,0.56,0.11,0,2.02,takeoff,0,0.45,0.17,0,-103.46
12.539,0.53,On the ground. CIC mode. Battery OK. Transmitter on,wait (1),256.8,0.56,0.11,0,2.06,takeoff,0,0.45,0.17,0,-103.46
12.57,0.53,On the ground. CIC mode. Battery OK. Transmitter on,wait (1),256.6,0.45,0.28,0,2.02,takeoff,0,0.45,0.17,0,-103.46
12.605,0.53,On the ground. CIC mode. Battery OK. Transmitter on,wait (1),256.6,0.45,0.28,0,2.06,takeoff,0,0.45,0.17,0,-103.4
12.64,0.53,On the ground. CIC mode. Battery OK. Transmitter on,wait (1),256.7,0.45,0.28,0,2.02,takeoff,0,0.45,0.17,0,-103.4
12.675,0.53,On the ground. CIC mode. Battery OK. Transmitter on,wait (1),256.6,0.62,0.34,0,2.06,takeoff,0,0.45,0.17,0,-103.4
12.708,0.53,On the ground. CIC mode. Battery OK. Transmitter on,wait (1),256.6,0.62,0.34,0,2.02,takeoff,0,0.45,0.17,0,-103.4
12.739,0.53,On the ground. CIC mode. Battery OK. Transmitter on,wait (1),256.6,0.62,0.34,0,2.02,takeoff,0,0.45,0.17,0,-103.4
12.775,0.53,On the ground. CIC mode. Battery OK. Transmitter on,wait (1),256.6,0.45,0.17,0,2.06,takeoff,0,0.45,0.17,0,-103.4
12.806,0.53,On the ground. CIC mode. Battery OK. Transmitter on,wait (1),256.5,0.45,0.17,0,2.06,takeoff,0,0.45,0.17,0,-103.4
12.844,0.53,On the ground. CIC mode. Battery OK. Transmitter on,wait (1),256.7,0.45,0.17,0,2.06,takeoff,0,0.45,0.17,0,-103.4
12.875,0.53,On the ground. CIC mode. Battery OK. Transmitter on,wait (1),256.6,0.5,0.28,0,2.06,takeoff,0,0.45,0.17,0,-103.4
12.912,0.53,On the ground. CIC mode. Battery OK. Transmitter on,wait (1),256.8,0.5,0.28,0,2.06,takeoff,0,0.45,0.17,0,-103.4
12.944,0.53,On the ground. CIC mode. Battery OK. Transmitter on,wait (1),256.8,0.5,0.28,0,2.06,takeoff,0,0.45,0.17,0,-103.4
12.98,0.53,On the ground. CIC mode. Battery OK. Transmitter on,wait (1),256.8,0.45,0.17,0,2.06,takeoff,0,0.45,0.17,0,-103.4
13.01,0.53,On the ground. CIC mode. Battery OK. Transmitter on,wait (1),256.7,0.45,0.17,0,2.06,takeoff,0,0.45,0.17,0,-103.4
13.048,0.53,On the ground. CIC mode. Battery OK. Transmitter on,wait (1),256.7,0.45,0.17,0,2.06,takeoff,0,0.45,0.17,1.83,-103.4
13.08,0.53,On the ground. CIC mode. Battery OK. Transmitter on,wait (1),256.8,0.5,0.22,0,2.02,takeoff,0,0.45,0.17,1.83,-103.4
13.114,0.53,On the ground. CIC mode. Battery OK. Transmitter on,wait (1),256.6,0.5,0.22,0,2.06,takeoff,0,0.45,0.17,1.83,-103.4
13.149,0.53,On the ground. CIC mode. Battery OK. Transmitter on,wait (1),256.5,0.5,0.22,0,2.06,takeoff,0,0.45,0.17,1.83,-103.4
13.18,0.53,On the ground. CIC mode. Battery OK. Transmitter on,wait (1),256.6,0.62,0.28,0,2.06,takeoff,0,0.45,0.17,1.83,-103.4
13.215,0.53,On the ground. CIC mode. Battery OK. Transmitter on,wait (1),256.7,0.62,0.28,0,2.06,takeoff,0,0.45,0.17,0.91,-103.4
13.254,0.53,On the ground. CIC mode. Battery OK. Transmitter on,wait (1),256.7,0.62,0.28,0,2.02,takeoff,0,0.45,0.17,0.91,-103.4
13.283,0.53,On the ground. CIC mode. Battery OK. Transmitter on,wait (1),256.6,0.62,0.28,0,2.02,takeoff,0,0.45,0.17,0.91,-103.4
13.318,0.53,On the ground. CIC mode. Battery OK. Transmitter on,wait (1),256.5,0.62,0.28,0,2.06,takeoff,0,0.45,0.17,0.91,-103.4
13.35,0.53,On the ground. CIC mode. Battery OK. Transmitter on,wait (1),256.7,0.62,0.28,0,2.06,takeoff,0,0.45,0.17,0.91,-103.4
13.385,0.53,On the ground. CIC mode. Battery OK. Transmitter on,wait (1),256.8,0.84,0.34,0,2.02,takeoff,0,0.45,0.17,0.91,-103.4
13.42,0.53,On the ground. CIC mode. Battery OK. Transmitter on,wait (1),256.7,0.84,0.34,0,2.06,takeoff,0,0.45,0.17,0,-103.4
13.455,0.53,On the ground. CIC mode. Battery OK. Transmitter on,wait (1),256.7,0.84,0.34,0,2.06,takeoff,0,0.45,0.17,0,-103.4
13.486,0.53,On the ground. CIC mode. Battery OK. Transmitter on,wait (1),256.8,0.67,0.17,0,2.06,takeoff,0,0.45,0.17,0,-103.4
13.525,0.53,On the ground. CIC mode. Battery OK. Transmitter on,wait (1),256.8,0.67,0.17,0,2.06,takeoff,0,0.45,0.17,0,-103.4
13.555,0.53,On the ground. CIC mode. Battery OK. Transmitter on,wait (1),256.8,0.67,0.17,0,2.06,takeoff,0,0.45,0.17,0,-103.4
13.592,0.53,On the ground. CIC mode. Battery OK. Transmitter on,wait (1),256.8,0.45,0.11,0,2.06,takeoff,0,0.45,0.17,0,-103.4
13.623,0.53,On the ground. CIC mode. Battery OK. Transmitter on,wait (1),256.7,0.45,0.11,0,2.06,takeoff,0,0.45,0.17,0,-103.4
13.66,0.53,On the ground. CIC mode. Battery OK. Transmitter on,wait (1),256.7,0.45,0.11,0,2.06,takeoff,0,0.45,0.17,0,-103.4
13.693,0.53,On the ground. CIC mode. Battery OK. Transmitter on,wait (1),256.8,0.5,0.06,0,2.06,takeoff,0,0.45,0.17,0,-103.4
13.725,0.53,On the ground. CIC mode. Battery OK. Transmitter on,wait (1),256.8,0.5,0.06,0,2.06,takeoff,0,0.45,0.17,0,-103.4
13.762,0.53,On the ground. CIC mode. Battery OK. Transmitter on,wait (1),256.7,0.5,0.06,0,2.06,takeoff,0,0.45,0.17,0,-103.4
13.792,0.53,On the ground. CIC mode. Battery OK. Transmitter on,wait (1),256.7,0.28,0.06,0,2.06,takeoff,0,0.45,0.17,0,-103.4
13.828,0.53,On the ground. CIC mode. Battery OK. Transmitter on,wait (1),256.6,0.28,0.06,0,2.06,takeoff,0,0.45,0.17,0,-103.4
13.863,0.53,On the ground. CIC mode. Battery OK. Transmitter on,wait (1),256.7,0.28,0.06,0,2.06,takeoff,0,0.45,0.17,0,-103.4
13.898,0.53,On the ground. CIC mode. Battery OK. Transmitter on,wait (1),256.8,0.5,0.17,0,2.06,takeoff,0,0.45,0.17,0,-103.4
13.932,0.53,On the ground. CIC mode. Battery OK. Transmitter on,wait (1),256.8,0.5,0.17,0,2.06,takeoff,0,0.45,0.17,0,-103.4
13.962,0.53,On the ground. CIC mode. Battery OK. Transmitter on,wait (1),256.7,0.5,0.17,0,2.06,takeoff,0,0.45,0.17,0,-103.4
13.998,0.53,On the ground. CIC mode. Battery OK. Transmitter on,wait (1),256.7,0.62,0.22,0,2.1,takeoff,0,0.45,0.17,0,-103.4
14.031,0,On the ground. CIC mode. Battery OK. Transmitter on,wait (1),256.6,0.62,0.22,0,2.1,takeoff,0,0.45,0.17,0,-103.4
14.068,0,On the ground. CIC mode. Battery OK. Transmitter on,wait (1),256.7,0.62,0.22,0,2.1,takeoff,0,0.45,0.17,1.22,-103.4
14.098,0,On the ground. CIC mode. Battery OK. Transmitter on,wait (1),256.8,0.39,0.17,0,2.1,takeoff,0,0.45,0.17,1.22,-103.4
14.136,0,On the ground. CIC mode. Battery OK. Transmitter on,wait (1),256.7,0.39,0.17,0,2.1,takeoff,0,0.45,0.17,1.22,-103.4
14.168,0,On the ground. CIC mode. Battery OK. Transmitter on,wait (1),256.9,0.39,0.17,0,2.1,takeoff,0,0.45,0.17,1.22,-103.4
14.198,0,On the ground. CIC mode. Battery OK. Transmitter on,wait (1),256.7,0.28,0.17,0,2.1,takeoff,0,0.45,0.17,1.22,-103.4
14.234,0.53,On the ground. CIC mode. Battery OK. Transmitter on,wait (1),256.7,0.28,0.17,0,2.1,takeoff,0,0.45,0.17,1.22,-103.4
14.268,0.53,On the ground. CIC mode. Battery OK. Transmitter on,wait (1),256.7,0.28,0.17,0,2.1,takeoff,0,0.45,0.17,1.22,-103.4
14.304,0.53,On the ground. CIC mode. Battery OK. Transmitter on,wait (1),256.7,0.45,0.06,0,2.1,takeoff,0,0.45,0.17,1.22,-103.4
14.337,0.53,On the ground. CIC mode. Battery OK. Transmitter on,wait (1),256.8,0.45,0.06,0,2.1,takeoff,0,0.45,0.17,1.22,-103.4
14.373,0.53,On the ground. CIC mode. Battery OK. Transmitter on,wait (1),256.8,0.45,0.06,0,2.1,takeoff,0,0.45,0.17,1.22,-103.4
14.403,0.53,On the ground. CIC mode. Battery OK. Transmitter on,wait (1),256.7,0.45,0.28,0,2.1,takeoff,0,0.45,0.17,1.22,-103.4
14.44,0.53,On the ground. CIC mode. Battery OK. Transmitter on,wait (1),256.5,0.45,0.28,0,2.1,takeoff,0,0.45,0.17,0.91,-103.4
14.474,0.53,On the ground. CIC mode. Battery OK. Transmitter on,wait (1),256.6,0.45,0.28,0,2.1,takeoff,0,0.45,0.17,0.91,-103.4
14.504,0.53,On the ground. CIC mode. Battery OK. Transmitter on,wait (1),256.9,0.45,0.22,0,2.1,takeoff,0,0.45,0.17,0.91,-103.4
14.541,0.53,On the ground. CIC mode. Battery OK. Transmitter on,wait (1),256.6,0.45,0.22,0,2.1,takeoff,0,0.45,0.17,0.91,-103.4
14.574,0.53,On the ground. CIC mode. Battery OK. Transmitter on,wait (1),256.6,0.45,0.22,0,2.1,takeoff,0,0.45,0.17,0.91,-103.4
14.61,0.53,On the ground. CIC mode. Battery OK. Transmitter on,wait (1),256.8,0.39,0.11,0,2.1,takeoff,0,0.45,0.17,0.91,-103.4
14.643,0.53,On the ground. CIC mode. Battery OK. Transmitter on,wait (1),256.6,0.39,0.11,0,2.1,takeoff,0,0.45,0.17,0.91,-103.4
14.68,0.53,On the ground. CIC mode. Battery OK. Transmitter on,wait (1),256.5,0.39,0.11,0,2.1,takeoff,0,0.5,0.17,0.91,-103.4
14.71,0.53,On the ground. CIC mode. Battery OK. Transmitter on,wait (1),256.9,0.39,0.28,0,2.1,takeoff,0,0.5,0.17,0.91,-103.4
14.744,0.53,On the ground. CIC mode. Battery OK. Transmitter on,wait (1),256.8,0.39,0.28,0,2.1,takeoff,0,0.5,0.17,0.91,-103.4
14.778,0.53,On the ground. CIC mode. Battery OK. Transmitter on,wait (1),256.8,0.39,0.28,0,2.1,takeoff,0,0.5,0.17,0.91,-103.4
14.813,0.53,On the ground. CIC mode. Battery OK. Transmitter on,wait (1),256.7,0.39,0.06,0,2.1,takeoff,0,0.5,0.17,0.91,-103.4
14.848,0.53,On the ground. CIC mode. Battery OK. Transmitter on,wait (1),256.9,0.39,0.06,0,2.1,takeoff,0,0.5,0.17,0.91,-103.4
14.878,0.53,On the ground. CIC mode. Battery OK. Transmitter on,wait (1),256.8,0.39,0.06,0,2.1,takeoff,0,0.5,0.17,0.91,-103.4
14.917,0.53,On the ground. CIC mode. Battery OK. Transmitter on,wait (1),256.8,0.45,0.17,0,2.06,takeoff,0,0.5,0.17,0.91,-103.4
14.95,0.53,On the ground. CIC mode. Battery OK. Transmitter on,wait (1),256.8,0.45,0.17,0,2.1,takeoff,0,0.5,0.17,0.91,-103.35
14.985,0.53,On the ground. CIC mode. Battery OK. Transmitter on,wait (1),256.8,0.45,0.17,0,2.1,takeoff,0,0.5,0.17,0.91,-103.35
15.015,0.53,On the ground. CIC mode. Battery OK. Transmitter on,wait (1),256.7,0.5,0.11,0,2.06,takeoff,0,0.5,0.17,0.91,-103.35
15.052,0.53,On the ground. CIC mode. Battery OK. Transmitter on,wait (1),256.6,0.5,0.11,0,2.1,takeoff,0,0.5,0.17,0,-103.35
15.086,0.53,On the ground. CIC mode. Battery OK. Transmitter on,wait (1),256.7,0.5,0.11,0,2.06,takeoff,0,0.5,0.17,0,-103.35
15.124,0.53,On the ground. CIC mode. Battery OK. Transmitter on,wait (1),256.8,0.34,0.11,0,2.1,takeoff,0,0.5,0.17,0,-103.35
15.152,0.53,On the ground. CIC mode. Battery OK. Transmitter on,wait (1),256.8,0.34,0.11,0,2.1,takeoff,0,0.5,0.17,0,-103.4
15.188,0.53,On the ground. CIC mode. Battery OK. Transmitter on,wait (1),256.7,0.34,0.11,0,2.1,takeoff,0,0.5,0.17,0,-103.4
15.221,0.53,On the ground. CIC mode. Battery OK. Transmitter on,wait (1),256.8,0.56,0.11,0,2.06,takeoff,0,0.5,0.17,0,-103.4
15.255,0.53,On the ground. CIC mode. Battery OK. Transmitter on,wait (1),256.5,0.56,0.11,0,2.06,takeoff,0,0.5,0.17,0.91,-103.4
15.292,0.53,On the ground. CIC mode. Battery OK. Transmitter on,wait (1),256.7,0.56,0.11,0,2.06,takeoff,0,0.5,0.17,0.91,-103.4
15.322,0.53,On the ground. CIC mode. Battery OK. Transmitter on,wait (1),256.8,0.45,0,0,2.06,takeoff,0,0.5,0.17,0.91,-103.4
15.357,0.53,On the ground. CIC mode. Battery OK. Transmitter on,wait (1),256.9,0.45,0,0,2.06,takeoff,0,0.5,0.17,0.91,-103.35
15.391,0.53,On the ground. CIC mode. Battery OK. Transmitter on,wait (1),256.8,0.45,0,0,2.06,takeoff,0,0.5,0.17,0.91,-103.35
15.426,0.53,On the ground. CIC mode. Battery OK. Transmitter on,wait (1),256.7,0.39,0.17,0,2.06,takeoff,0,0.5,0.17,0.91,-103.35
15.457,0.53,On the ground. CIC mode. Battery OK. Transmitter on,wait (1),256.7,0.39,0.17,0,2.06,takeoff,0,0.5,0.17,0.91,-103.35
15.496,0.53,On the ground. CIC mode. Battery OK. Transmitter on,wait (1),256.6,0.39,0.17,0,2.06,takeoff,0,0.5,0.17,0,-103.35
15.526,0.53,On the ground. CIC mode. Battery OK. Transmitter on,wait (1),256.8,0.56,0.11,0,2.06,takeoff,0,0.5,0.17,0,-103.35
15.563,0.53,On the ground. CIC mode. Battery OK. Transmitter on,wait (1),256.9,0.56,0.11,0,2.06,takeoff,0,0.5,0.17,0,-103.35
15.594,0.53,On the ground. CIC mode. Battery OK. Transmitter on,wait (1),256.9,0.56,0.11,0,2.06,takeoff,0,0.5,0.17,0,-103.35
15.63,0.53,On the ground. CIC mode. Battery OK. Transmitter on,wait (1),256.6,0.45,0.17,0,2.06,takeoff,0,0.5,0.17,0,-103.35
15.662,0.53,On the ground. CIC mode. Battery OK. Transmitter on,wait (1),256.7,0.45,0.17,0,2.06,takeoff,0,0.5,0.17,1.83,-103.35
15.699,0.53,On the ground. CIC mode. Battery OK. Transmitter on,wait (1),256.6,0.45,0.17,0,2.06,takeoff,0,0.5,0.17,1.83,-103.35
15.733,0.53,On the ground. CIC mode. Battery OK. Transmitter on,wait (1),256.6,0.56,0.11,0,2.02,takeoff,0,0.5,0.17,1.83,-103.35
15.763,0.53,On the ground. CIC mode. Battery OK. Transmitter on,wait (1),256.8,0.56,0.11,0,2.06,takeoff,0,0.5,0.17,1.83,-103.35
15.8,0.53,On the ground. CIC mode. Battery OK. Transmitter on,wait (1),256.7,0.56,0.11,0,2.06,takeoff,0,0.5,0.17,1.83,-103.35
15.831,0.53,On the ground. CIC mode. Battery OK. Transmitter on,wait (1),256.5,0.39,0.06,0,2.02,takeoff,0,0.5,0.17,1.83,-103.35
15.87,0,On the ground. CIC mode. Battery OK. Transmitter on,wait (1),256.8,0.39,0.06,0,2.02,takeoff,0,0.5,0.17,0,-103.35
15.902,0,On the ground. CIC mode. Battery OK. Transmitter on,wait (1),256.7,0.39,0.06,0,2.02,takeoff,0,0.5,0.17,0,-103.35
15.935,0,On the ground. CIC mode. Battery OK. Transmitter on,wait (1),256.8,0.45,0.17,0,2.02,takeoff,0,0.5,0.17,0,-103.35
15.967,0,On the ground. CIC mode. Battery OK. Transmitter on,wait (1),256.9,0.45,0.17,0,2.02,takeoff,0,0.5,0.17,0,-103.35
16.004,0,On the ground. CIC mode. Battery OK. Transmitter on,wait (1),256.9,0.45,0.17,0,2.02,takeoff,0,0.5,0.17,0,-103.35
16.034,0,On the ground. CIC mode. Battery OK. Transmitter on,wait (1),256.7,0.5,0.17,0,1.98,takeoff,0,0.5,0.17,0,-103.35
16.071,0.53,On the ground. CIC mode. Battery OK. Transmitter on,wait (1),256.8,0.5,0.17,0,2.02,takeoff,0,0.5,0.17,0,-103.35
16.105,0.53,On the ground. CIC mode. Battery OK. Transmitter on,wait (1),256.8,0.5,0.17,0,1.98,takeoff,0,0.5,0.17,1.22,-103.35
16.139,0.53,On the ground. CIC mode. Battery OK. Transmitter on,wait (1),256.8,0.45,0.11,0,1.98,takeoff,0,0.5,0.17,1.22,-103.35
